City_ID,City,Lat,Lng,Max Temp,Humidity,Cloudiness,Wind Speed,Country,Date,Current Description
0,Punta Arenas,-53.15,-70.9167,57.2,41,0,29.93,CL,2021-01-21 22:14:37,clear sky
1,Smithers,54.7804,-127.1743,23.0,80,90,4.61,CA,2021-01-21 22:14:37,overcast clouds
2,Nikolskoye,59.7035,30.7861,14.0,92,90,13.42,RU,2021-01-21 22:14:37,snow
3,Carauari,-4.8828,-66.8958,80.22,80,41,2.64,BR,2021-01-21 22:14:37,light rain
4,La Rioja,42.25,-2.5,46.4,87,40,2.3,ES,2021-01-21 22:14:37,scattered clouds
5,Agustin Codazzi,10.0341,-73.2361,91.6,36,6,5.01,CO,2021-01-21 22:14:37,clear sky
6,Ibirite,-20.0219,-44.0589,80.6,34,0,12.66,BR,2021-01-21 22:14:37,clear sky
7,Baykit,61.67,96.37,-36.49,75,95,3.58,RU,2021-01-21 22:14:37,overcast clouds
8,Qaanaaq,77.484,-69.3632,11.26,89,84,2.73,GL,2021-01-21 22:14:37,broken clouds
9,Lardos,36.0942,28.0157,55.4,76,40,6.91,GR,2021-01-21 22:14:38,light rain
10,Thompson,55.7435,-97.8558,-11.2,77,75,2.3,CA,2021-01-21 22:14:25,light snow
11,Ihosy,-22.4,46.1167,73.22,92,100,3.29,MG,2021-01-21 22:14:38,light rain
12,Hermanus,-34.4187,19.2345,72.0,80,84,7.0,ZA,2021-01-21 22:13:26,light rain
13,Pangoa,-12.1167,-73.0,81.28,64,60,1.66,PE,2021-01-21 22:14:38,light rain
14,Staryy Nadym,65.6118,72.6842,-38.13,80,0,10.42,RU,2021-01-21 22:14:38,clear sky
15,East London,-33.0153,27.9116,73.74,82,47,16.82,ZA,2021-01-21 22:14:38,scattered clouds
16,Plettenberg Bay,-34.0527,23.3716,69.96,87,42,5.06,ZA,2021-01-21 22:14:38,scattered clouds
17,Vaini,-21.2,-175.2,80.6,89,75,11.5,TO,2021-01-21 22:14:38,moderate rain
18,Te Anau,-45.4167,167.7167,56.59,81,92,4.76,NZ,2021-01-21 22:14:38,overcast clouds
19,Butaritari,3.0707,172.7902,79.79,80,22,11.43,KI,2021-01-21 22:14:38,moderate rain
20,Rikitea,-23.1203,-134.9692,78.78,73,0,15.79,PF,2021-01-21 22:14:39,clear sky
21,Jamestown,42.097,-79.2353,35.6,64,90,12.66,US,2021-01-21 22:09:47,overcast clouds
22,Ushuaia,-54.8,-68.3,53.6,71,20,3.44,AR,2021-01-21 22:14:39,few clouds
23,Sherkot,29.35,78.5833,49.28,53,0,1.36,IN,2021-01-21 22:14:39,clear sky
24,Yar-Sale,66.8333,70.8333,-36.06,83,75,8.3,RU,2021-01-21 22:14:39,broken clouds
25,Salalah,17.0151,54.0924,68.0,60,0,3.44,OM,2021-01-21 22:14:39,clear sky
26,Galesong,-5.3166,119.3661,78.75,83,75,7.36,ID,2021-01-21 22:14:39,light rain
27,Awjilah,29.1081,21.2869,46.76,55,0,8.77,LY,2021-01-21 22:14:39,clear sky
28,Bluff,-46.6,168.3333,57.99,83,57,15.01,NZ,2021-01-21 22:14:39,broken clouds
29,Hasaki,35.7333,140.8333,30.2,86,40,3.44,JP,2021-01-21 22:14:39,scattered clouds
30,Mehamn,71.0357,27.8492,19.4,86,90,13.8,NO,2021-01-21 22:14:39,snow
31,Najran,17.4924,44.1277,59.0,38,60,4.61,SA,2021-01-21 22:10:27,dust
32,Amboasary,-25.0333,46.3833,82.4,89,20,20.71,MG,2021-01-21 22:14:40,light rain
33,Carutapera,-1.195,-46.02,78.08,87,100,8.55,BR,2021-01-21 22:14:40,light rain
34,Awbari,26.5921,12.7805,49.44,47,0,6.8,LY,2021-01-21 22:14:40,clear sky
35,Silvan,38.1419,41.0081,24.8,86,0,4.61,TR,2021-01-21 22:14:40,clear sky
36,Manggar,-2.8833,108.2667,77.95,86,13,8.5,ID,2021-01-21 22:14:40,few clouds
37,Saint-Philippe,-21.3585,55.7679,82.4,74,75,11.03,RE,2021-01-21 22:14:40,broken clouds
38,Busselton,-33.65,115.3333,62.01,88,0,3.0,AU,2021-01-21 22:14:40,clear sky
39,Nuuk,64.1835,-51.7216,24.8,80,20,8.05,GL,2021-01-21 22:14:41,few clouds
40,Cherskiy,68.75,161.3,-40.09,81,0,2.37,RU,2021-01-21 22:14:41,clear sky
41,Port Elizabeth,-33.918,25.5701,69.8,94,75,9.22,ZA,2021-01-21 22:14:41,broken clouds
42,Severo-Kurilsk,50.6789,156.125,18.82,93,99,3.38,RU,2021-01-21 22:14:41,light snow
43,Atuona,-9.8,-139.0333,77.54,79,52,13.47,PF,2021-01-21 22:14:41,broken clouds
44,Ambovombe,-25.1667,46.0833,78.78,89,10,4.47,MG,2021-01-21 22:14:41,clear sky
45,Torbay,47.6666,-52.7314,30.0,100,90,32.21,CA,2021-01-21 22:10:27,heavy snow
46,Avarua,-21.2078,-159.775,86.0,70,20,6.91,CK,2021-01-21 22:14:41,light rain
47,Tasiilaq,65.6145,-37.6368,8.6,78,20,6.91,GL,2021-01-21 22:14:41,few clouds
48,Norman Wells,65.282,-126.8329,5.0,85,75,2.3,CA,2021-01-21 22:14:42,light snow
49,Mumford,5.2618,-0.759,79.34,85,55,7.76,GH,2021-01-21 22:14:42,broken clouds
50,Hongjiang,27.11,109.9956,48.15,90,100,2.64,CN,2021-01-21 22:14:42,moderate rain
51,Kutum,14.2,24.6667,50.97,42,7,10.89,SD,2021-01-21 22:14:42,clear sky
52,Margate,51.3813,1.3862,42.01,83,100,1.99,GB,2021-01-21 22:14:42,overcast clouds
53,Kapaa,22.0752,-159.319,78.8,69,40,14.97,US,2021-01-21 22:12:34,light rain
54,Ketchikan,55.3422,-131.6461,35.6,80,75,8.05,US,2021-01-21 22:14:42,broken clouds
55,Albany,42.6001,-73.9662,32.0,55,93,5.68,US,2021-01-21 22:14:20,overcast clouds
56,Bolshevik,54.0065,27.5692,30.2,93,100,11.18,BY,2021-01-21 22:14:42,overcast clouds
57,Sitka,57.0531,-135.33,39.2,87,90,3.44,US,2021-01-21 22:14:42,overcast clouds
58,Licheng,23.2955,113.8284,66.99,88,75,8.95,CN,2021-01-21 22:14:42,broken clouds
59,Yatou,37.15,122.3833,35.89,91,85,11.65,CN,2021-01-21 22:14:43,overcast clouds
60,Sechura,-5.5569,-80.8222,81.16,56,12,17.34,PE,2021-01-21 22:14:43,few clouds
61,Russell,32.3502,-85.1999,69.8,64,90,6.91,US,2021-01-21 22:14:43,haze
62,Dikson,73.5069,80.5464,-26.48,83,7,4.12,RU,2021-01-21 22:14:43,clear sky
63,Hilo,19.7297,-155.09,69.8,83,90,5.75,US,2021-01-21 22:14:43,heavy intensity rain
64,Bambous Virieux,-20.3428,57.7575,79.0,83,40,5.75,MU,2021-01-21 22:14:43,scattered clouds
65,Bengkulu,-3.8004,102.2655,75.11,87,100,5.46,ID,2021-01-21 22:14:43,light rain
66,Sibu,2.3,111.8167,73.4,100,40,0.65,MY,2021-01-21 22:14:43,scattered clouds
67,Bredasdorp,-34.5322,20.0403,69.8,88,78,8.05,ZA,2021-01-21 22:14:43,broken clouds
68,Mataura,-46.1927,168.8643,57.99,83,74,15.01,NZ,2021-01-21 22:14:44,broken clouds
69,Hofn,64.2539,-15.2082,29.55,89,70,23.71,IS,2021-01-21 22:14:44,broken clouds
70,Goundam,16.4145,-3.6708,70.21,20,0,11.41,ML,2021-01-21 22:14:44,clear sky
71,Roald,62.5833,6.1333,41.0,75,0,4.61,NO,2021-01-21 22:14:44,clear sky
72,Varzea Da Palma,-17.5981,-44.7308,75.61,64,96,1.97,BR,2021-01-21 22:13:06,overcast clouds
73,Aklavik,68.2191,-135.0107,-9.4,77,90,7.49,CA,2021-01-21 22:14:44,overcast clouds
74,Ribeira Grande,38.5167,-28.7,59.0,77,40,5.75,PT,2021-01-21 22:14:44,scattered clouds
75,Inirida,3.8653,-67.9239,76.68,95,100,2.06,CO,2021-01-21 22:12:04,light rain
76,Korop,51.5664,32.9586,28.02,99,91,12.1,UA,2021-01-21 22:14:44,overcast clouds
77,Lorengau,-2.0226,147.2712,82.17,64,100,1.25,PG,2021-01-21 22:14:45,overcast clouds
78,Bumba,2.1833,22.4667,75.04,54,97,1.23,CD,2021-01-21 22:14:45,overcast clouds
79,Loreto,22.2667,-101.9667,74.3,26,1,17.45,MX,2021-01-21 22:14:45,clear sky
80,Ravar,31.2656,56.8055,35.53,70,8,8.28,IR,2021-01-21 22:14:45,clear sky
81,Lembeni,-3.7833,37.6167,70.23,75,100,6.55,TZ,2021-01-21 22:14:45,overcast clouds
82,Iwaki,37.05,140.8833,37.0,91,58,4.88,JP,2021-01-21 22:14:45,broken clouds
83,Hithadhoo,-0.6,73.0833,81.81,74,83,9.98,MV,2021-01-21 22:14:46,broken clouds
84,Yellowknife,62.456,-114.3525,-14.8,76,75,3.44,CA,2021-01-21 22:13:44,broken clouds
85,Portland,45.5234,-122.6762,48.99,81,75,3.2,US,2021-01-21 22:13:07,broken clouds
86,New Norfolk,-42.7826,147.0587,68.0,47,100,4.0,AU,2021-01-21 22:14:46,overcast clouds
87,Tura,25.5198,90.2201,56.5,57,0,3.74,IN,2021-01-21 22:14:46,clear sky
88,Ninghai,29.2892,121.4247,59.0,99,73,3.11,CN,2021-01-21 22:13:03,broken clouds
89,Cidreira,-30.1811,-50.2056,73.92,85,82,15.95,BR,2021-01-21 22:13:09,broken clouds
90,Tambura,5.6,27.4667,69.67,26,77,4.59,SS,2021-01-21 22:14:46,broken clouds
91,Cape Town,-33.9258,18.4232,70.0,82,40,10.36,ZA,2021-01-21 22:10:15,scattered clouds
92,Pisco,-13.7,-76.2167,75.2,69,0,23.02,PE,2021-01-21 22:14:46,clear sky
93,Bria,6.5423,21.9863,71.46,32,75,4.65,CF,2021-01-21 22:14:47,broken clouds
94,Coahuayana,18.7333,-103.6833,86.0,45,40,6.96,MX,2021-01-21 22:14:47,scattered clouds
95,Sorland,67.667,12.6934,24.8,58,75,36.82,NO,2021-01-21 22:14:47,light snow
96,Hobart,-42.8794,147.3294,68.0,34,0,12.66,AU,2021-01-21 22:13:09,clear sky
97,Zaysan,47.4667,84.8667,18.0,90,92,2.24,KZ,2021-01-21 22:10:17,overcast clouds
98,Sistranda,63.7256,8.834,39.2,65,0,18.41,NO,2021-01-21 22:14:47,clear sky
99,Saskylakh,71.9167,114.0833,-22.13,85,100,9.37,RU,2021-01-21 22:14:47,overcast clouds
100,Taoudenni,22.6783,-3.9836,66.47,21,7,11.86,ML,2021-01-21 22:14:47,clear sky
101,Touros,-5.1989,-35.4608,78.8,78,0,9.22,BR,2021-01-21 22:14:47,clear sky
102,Cabo San Lucas,22.8909,-109.9124,77.0,73,75,9.22,MX,2021-01-21 22:12:07,broken clouds
103,San Quintin,30.4833,-115.95,62.38,70,1,9.17,MX,2021-01-21 22:14:48,clear sky
104,Olenegorsk,68.15,33.3,-4.49,91,89,2.48,RU,2021-01-21 22:14:48,overcast clouds
105,Laguna,38.421,-121.4238,64.99,31,1,5.75,US,2021-01-21 22:11:56,clear sky
106,Khatanga,71.9667,102.5,-32.24,84,99,2.98,RU,2021-01-21 22:14:48,overcast clouds
107,Coachella,33.6803,-116.1739,75.2,33,1,10.36,US,2021-01-21 22:14:48,clear sky
108,Sao Joao Da Barra,-21.6403,-41.0511,78.8,73,0,11.5,BR,2021-01-21 22:14:48,clear sky
109,Pangai,-19.8,-174.35,80.6,89,75,4.61,TO,2021-01-21 22:14:49,light rain
110,Faanui,-16.4833,-151.75,80.87,75,2,12.66,PF,2021-01-21 22:14:49,light rain
111,Maues,-3.3836,-57.7186,74.89,93,84,1.79,BR,2021-01-21 22:14:49,broken clouds
112,Vostok,46.4856,135.8833,-11.49,88,0,4.25,RU,2021-01-21 22:14:49,clear sky
113,Wattegama,6.7989,81.4808,72.36,95,96,3.71,LK,2021-01-21 22:14:49,overcast clouds
114,Rameswaram,9.2833,79.3,79.41,85,91,14.79,IN,2021-01-21 22:14:49,light rain
115,Zyryanka,65.75,150.85,-43.64,80,38,1.83,RU,2021-01-21 22:14:49,scattered clouds
116,Iztapa,13.9333,-90.7075,87.8,55,1,13.8,GT,2021-01-21 22:14:49,clear sky
117,Belaya Gora,68.5333,146.4167,-46.48,79,78,1.7,RU,2021-01-21 22:14:50,broken clouds
118,San Cristobal,7.7669,-72.225,82.4,65,40,9.22,VE,2021-01-21 22:11:48,scattered clouds
119,Celestun,20.8667,-90.4,74.73,70,4,11.03,MX,2021-01-21 22:14:50,clear sky
120,Nanortalik,60.1432,-45.2371,23.31,87,0,4.45,GL,2021-01-21 22:14:50,clear sky
121,Tatvan,38.5067,42.2817,10.63,90,12,5.5,TR,2021-01-21 22:14:50,few clouds
122,Jumla,29.2747,82.1838,40.68,42,0,4.85,NP,2021-01-21 22:14:50,clear sky
123,Abu Dhabi,24.4667,54.3667,66.2,59,20,14.97,AE,2021-01-21 22:12:03,few clouds
124,Georgetown,5.4112,100.3354,77.0,83,20,4.14,MY,2021-01-21 22:13:22,few clouds
125,Kimbe,-5.5502,150.1429,80.35,79,100,1.68,PG,2021-01-21 22:14:50,overcast clouds
126,Morros,-9.4467,-46.3003,79.61,63,45,1.86,BR,2021-01-21 22:14:50,scattered clouds
127,Hiroshima,34.3963,132.4594,48.0,38,100,0.16,JP,2021-01-21 22:13:53,overcast clouds
128,Tommot,58.9564,126.2925,-34.47,80,100,0.72,RU,2021-01-21 22:12:11,overcast clouds
129,Pangnirtung,66.1451,-65.7125,28.4,59,75,4.65,CA,2021-01-21 22:14:51,broken clouds
130,Martapura,-3.4167,114.85,75.11,91,88,0.67,ID,2021-01-21 22:14:51,overcast clouds
131,Normandin,48.8333,-72.5321,6.8,85,100,4.61,CA,2021-01-21 22:14:51,light snow
132,Sao Filipe,14.8961,-24.4956,72.63,70,59,7.16,CV,2021-01-21 22:14:51,broken clouds
133,Pasni,25.2631,63.471,69.55,82,55,8.19,PK,2021-01-21 22:14:51,broken clouds
134,Isangel,-19.55,169.2667,78.8,94,90,10.76,VU,2021-01-21 22:14:51,moderate rain
135,Atbasar,51.8,68.3333,-16.11,88,17,6.78,KZ,2021-01-21 22:14:51,few clouds
136,Alofi,-19.0595,-169.9187,84.2,79,75,6.91,NU,2021-01-21 22:14:51,light rain
137,Puro,12.4841,123.3827,77.86,84,36,3.91,PH,2021-01-21 22:14:52,light rain
138,Tuktoyaktuk,69.4541,-133.0374,-7.6,84,90,16.11,CA,2021-01-21 22:14:52,overcast clouds
139,Mar Del Plata,-38.0023,-57.5575,78.8,78,0,16.11,AR,2021-01-21 22:10:57,clear sky
140,Lubango,-14.9172,13.4925,60.58,53,100,3.6,AO,2021-01-21 22:14:52,overcast clouds
141,Varhaug,58.6147,5.6457,41.0,93,75,20.71,NO,2021-01-21 22:14:52,broken clouds
142,Longyearbyen,78.2186,15.6401,10.4,61,0,21.85,SJ,2021-01-21 22:14:52,clear sky
143,Havoysund,70.9963,24.6622,23.0,73,0,12.66,NO,2021-01-21 22:14:52,clear sky
144,Mareeba,-17.0,145.4333,78.8,73,100,10.36,AU,2021-01-21 22:14:52,overcast clouds
145,Grindavik,63.8424,-22.4338,28.4,74,75,21.85,IS,2021-01-21 22:14:52,broken clouds
146,Berlevag,70.8578,29.0864,21.2,79,90,10.36,NO,2021-01-21 22:14:53,snow
147,Johi,26.6921,67.6133,61.0,45,0,4.74,PK,2021-01-21 22:14:53,clear sky
148,Chapais,49.7834,-74.8492,6.8,78,90,12.66,CA,2021-01-21 22:14:53,light snow
149,Suntar,62.1444,117.6319,-42.72,79,100,1.3,RU,2021-01-21 22:14:53,overcast clouds
150,Bethel,41.3712,-73.414,34.0,63,37,4.54,US,2021-01-21 22:14:53,scattered clouds
151,Udachnyy,66.4167,112.4,-57.03,52,79,3.13,RU,2021-01-21 22:14:53,broken clouds
152,Ostrovnoy,68.0531,39.5131,3.29,92,100,8.79,RU,2021-01-21 22:14:53,overcast clouds
153,Barmer,25.75,71.3833,60.19,33,0,7.0,IN,2021-01-21 22:14:53,clear sky
154,Asosa,10.0667,34.5333,64.99,47,6,4.38,ET,2021-01-21 22:14:53,clear sky
155,Esperance,-33.8667,121.9,64.4,82,90,12.66,AU,2021-01-21 22:14:53,overcast clouds
156,Port Blair,11.6667,92.75,74.37,69,6,6.89,IN,2021-01-21 22:14:54,clear sky
157,Constitucion,-35.3333,-72.4167,65.7,69,20,8.41,CL,2021-01-21 22:14:54,few clouds
158,Portsmouth,50.799,-1.0913,43.0,89,99,12.77,GB,2021-01-21 22:14:54,overcast clouds
159,Narsaq,60.9167,-46.05,23.0,58,20,4.61,GL,2021-01-21 22:14:54,few clouds
160,Victoria,22.2855,114.1577,66.99,82,56,3.44,HK,2021-01-21 22:10:16,broken clouds
161,Esil,51.9556,66.4042,-13.76,89,46,5.82,KZ,2021-01-21 22:14:54,scattered clouds
162,Port Alfred,-33.5906,26.891,66.99,94,9,1.99,ZA,2021-01-21 22:14:54,clear sky
163,Los Llanos De Aridane,28.6585,-17.9182,68.0,83,75,5.75,ES,2021-01-21 22:14:54,broken clouds
164,Tarata,-17.6167,-66.0167,66.2,55,75,4.61,BO,2021-01-21 22:14:54,broken clouds
165,Port Lincoln,-34.7333,135.8667,68.4,57,0,3.33,AU,2021-01-21 22:14:55,light rain
166,Hokitika,-42.7167,170.9667,58.19,83,99,8.68,NZ,2021-01-21 22:14:55,overcast clouds
167,Muros,42.7762,-9.0603,53.01,92,96,1.99,ES,2021-01-21 22:14:55,moderate rain
168,Lebu,-37.6167,-73.65,62.92,78,0,20.74,CL,2021-01-21 22:14:55,clear sky
169,Bitung,1.4451,125.1824,75.2,100,20,1.14,ID,2021-01-21 22:14:55,few clouds
170,Arvika,59.6553,12.5852,37.4,93,75,21.85,SE,2021-01-21 22:14:55,light rain
171,Saint George,37.1041,-113.5841,63.0,38,20,3.44,US,2021-01-21 22:09:59,few clouds
172,Heide,54.2,9.1,43.0,82,93,5.99,DE,2021-01-21 22:14:55,overcast clouds
173,Ixtapa,20.7,-105.2,80.6,61,20,6.91,MX,2021-01-21 22:14:55,few clouds
174,Upernavik,72.7868,-56.1549,25.68,98,83,10.22,GL,2021-01-21 22:14:56,broken clouds
175,Iqaluit,63.7506,-68.5145,32.0,74,75,28.77,CA,2021-01-21 22:14:56,snow
176,Fairview,40.8126,-73.999,42.8,45,1,5.68,US,2021-01-21 22:11:19,clear sky
177,Saint-Augustin,51.226,-58.6502,12.11,90,90,2.91,CA,2021-01-21 22:14:56,overcast clouds
178,Havre-Saint-Pierre,50.2334,-63.5986,1.4,71,1,3.44,CA,2021-01-21 22:14:56,clear sky
179,Castro,-24.7911,-50.0119,65.53,95,100,4.16,BR,2021-01-21 22:14:56,overcast clouds
180,Upington,-28.4478,21.2561,80.6,61,76,21.85,ZA,2021-01-21 22:14:09,broken clouds
181,Marion,39.7684,-86.1555,46.4,36,1,12.66,US,2021-01-21 22:14:56,clear sky
182,Chuy,-33.6971,-53.4616,72.82,73,0,11.86,UY,2021-01-21 22:14:56,clear sky
183,Karpathos,35.507,27.2132,55.4,67,12,1.14,GR,2021-01-21 22:14:56,few clouds
184,Tabuk,17.4189,121.4443,71.24,90,68,2.89,PH,2021-01-21 22:14:56,broken clouds
185,Tiksi,71.6872,128.8694,-31.02,83,100,18.43,RU,2021-01-21 22:14:57,overcast clouds
186,Tsiroanomandidy,-18.7667,46.0333,69.78,86,100,4.79,MG,2021-01-21 22:14:57,overcast clouds
187,Clyde River,70.4692,-68.5914,-0.4,92,40,2.3,CA,2021-01-21 22:14:57,scattered clouds
188,Manyoni,-5.7467,34.8382,63.5,92,100,2.21,TZ,2021-01-21 22:14:57,overcast clouds
189,Santa Rita,-7.1139,-34.9781,80.6,78,20,10.36,BR,2021-01-21 22:14:57,few clouds
190,Port Shepstone,-30.7414,30.455,74.35,84,99,15.7,ZA,2021-01-21 22:14:57,overcast clouds
191,Imbituba,-28.24,-48.6703,71.6,94,75,5.75,BR,2021-01-21 22:14:57,light rain
192,Daigo,36.7667,140.35,37.0,52,21,1.54,JP,2021-01-21 22:12:50,few clouds
193,Kalmunai,7.4167,81.8167,77.05,84,100,3.27,LK,2021-01-21 22:14:57,light rain
194,Lavrentiya,65.5833,-171.0,23.38,98,100,4.94,RU,2021-01-21 22:12:12,snow
195,Vila Velha,-20.3297,-40.2925,81.0,78,20,6.91,BR,2021-01-21 22:14:58,few clouds
196,Arraial Do Cabo,-22.9661,-42.0278,80.6,88,0,14.97,BR,2021-01-21 22:14:58,clear sky
197,Kaka,37.3482,59.6143,29.97,97,100,9.82,TM,2021-01-21 22:14:58,light snow
198,Geraldton,-28.7667,114.6,69.8,88,0,2.3,AU,2021-01-21 22:14:58,clear sky
199,Nova Borova,50.693,28.6345,34.93,87,91,14.29,UA,2021-01-21 22:14:58,overcast clouds
200,Daloa,6.8774,-6.4502,79.09,59,42,5.17,CI,2021-01-21 22:14:58,scattered clouds
201,Titel,45.2061,20.2944,48.2,65,0,9.22,RS,2021-01-21 22:14:58,clear sky
202,Perry,37.2506,-83.1999,43.0,65,40,5.75,US,2021-01-21 22:14:58,scattered clouds
203,Nioki,-2.7167,17.6833,74.48,83,42,2.57,CD,2021-01-21 22:14:58,scattered clouds
204,Provideniya,64.3833,-173.3,24.8,93,90,8.95,RU,2021-01-21 22:14:59,light snow
205,Puerto Ayora,-0.7393,-90.3518,82.4,69,75,6.91,EC,2021-01-21 22:14:59,broken clouds
206,Mahebourg,-20.4081,57.7,77.0,83,40,5.75,MU,2021-01-21 22:14:59,scattered clouds
207,Coquimbo,-29.9533,-71.3436,66.2,63,0,11.5,CL,2021-01-21 22:14:50,clear sky
208,Den Helder,52.9599,4.7593,42.01,87,75,13.8,NL,2021-01-21 22:14:59,light rain
209,Porbandar,21.6422,69.6093,65.32,79,0,10.94,IN,2021-01-21 22:14:59,clear sky
210,Umm Kaddadah,13.6017,26.6876,60.76,31,8,20.2,SD,2021-01-21 22:14:59,clear sky
211,Handan,36.6006,114.4678,31.71,84,92,5.26,CN,2021-01-21 22:14:59,overcast clouds
212,Solwezi,-12.1688,26.3894,61.5,97,100,3.58,ZM,2021-01-21 22:14:59,overcast clouds
213,Guaruja,-23.9931,-46.2564,81.0,83,90,5.75,BR,2021-01-21 22:14:59,moderate rain
214,Ismailia,30.6043,32.2723,51.64,61,0,7.25,EG,2021-01-21 22:15:00,clear sky
215,Amga,60.8953,131.9608,-52.33,75,78,1.97,RU,2021-01-21 22:12:12,broken clouds
216,Natal,-5.795,-35.2094,80.6,74,20,13.8,BR,2021-01-21 22:15:00,few clouds
217,Raudeberg,61.9875,5.1352,42.01,72,100,6.49,NO,2021-01-21 22:15:00,overcast clouds
218,Shimoda,34.6667,138.95,39.0,86,0,18.81,JP,2021-01-21 22:15:00,clear sky
219,Sur,22.5667,59.5289,69.03,50,10,4.38,OM,2021-01-21 22:15:00,clear sky
220,Valparaiso,-33.0393,-71.6273,64.99,77,40,5.75,CL,2021-01-21 22:11:59,scattered clouds
221,Baruun-Urt,46.6806,113.2792,-1.3,90,11,10.22,MN,2021-01-21 22:15:00,few clouds
222,Barrow,71.2906,-156.7887,-4.0,77,90,23.02,US,2021-01-21 22:15:00,snow
223,Lerwick,60.1545,-1.1494,41.0,87,75,23.02,GB,2021-01-21 22:15:00,light rain
224,Mirnyy,62.5353,113.9611,-46.62,78,100,1.41,RU,2021-01-21 22:15:01,overcast clouds
225,Vardo,70.3705,31.1107,21.2,93,75,19.86,NO,2021-01-21 22:15:01,snow
226,Guadalajara,20.6667,-103.3333,80.01,33,75,3.44,MX,2021-01-21 22:12:44,broken clouds
227,Monte Carmelo,-18.7247,-47.4986,70.66,81,58,6.71,BR,2021-01-21 22:15:01,light rain
228,Micheweni,-4.9667,39.8333,81.41,81,100,16.64,TZ,2021-01-21 22:15:01,overcast clouds
229,Japura,-0.3167,102.35,72.18,97,91,0.51,ID,2021-01-21 22:15:01,overcast clouds
230,Makakilo City,21.3469,-158.0858,82.4,51,90,8.05,US,2021-01-21 22:15:01,overcast clouds
231,Lata,40.1629,-8.3327,60.01,99,100,11.99,PT,2021-01-21 22:15:01,overcast clouds
232,Zaria,11.1113,7.7227,67.06,24,49,11.77,NG,2021-01-21 22:15:02,scattered clouds
233,Banjar,-8.19,114.9675,77.59,72,98,4.59,ID,2021-01-21 22:15:02,overcast clouds
234,Opuwo,-18.0607,13.84,67.1,73,100,6.38,NA,2021-01-21 22:15:02,overcast clouds
235,Svetlyy,54.675,20.1347,41.0,75,0,11.18,RU,2021-01-21 22:15:02,clear sky
236,Kailua,21.4022,-157.7394,82.4,69,90,11.5,US,2021-01-21 22:10:25,overcast clouds
237,Katsuura,35.1333,140.3,41.0,56,75,4.61,JP,2021-01-21 22:15:02,broken clouds
238,Samarai,-10.6167,150.6667,82.81,75,100,7.34,PG,2021-01-21 22:15:02,light rain
239,Peoria,40.7667,-89.7668,44.6,39,1,14.97,US,2021-01-21 22:10:46,clear sky
240,Cayenne,4.9333,-52.3333,77.0,88,75,4.61,GF,2021-01-21 22:15:03,broken clouds
241,Gat,31.61,34.7642,48.0,69,0,1.01,IL,2021-01-21 22:11:04,clear sky
242,Palmer,42.1584,-72.3287,34.0,63,71,4.38,US,2021-01-21 22:12:21,broken clouds
243,Olafsvik,64.8945,-23.7142,28.58,90,6,26.24,IS,2021-01-21 22:15:03,clear sky
244,Soledade,-28.8183,-52.5103,65.82,96,90,6.22,BR,2021-01-21 22:15:03,overcast clouds
245,Broome,42.2506,-75.833,35.01,64,90,4.61,US,2021-01-21 22:15:03,overcast clouds
246,Roebourne,-20.7833,117.1333,82.85,66,80,5.12,AU,2021-01-21 22:15:04,broken clouds
247,Mecca,21.4267,39.8261,73.67,29,0,12.44,SA,2021-01-21 22:14:08,clear sky
248,Chokurdakh,70.6333,147.9167,-40.22,81,37,6.8,RU,2021-01-21 22:15:04,scattered clouds
249,Moron,-34.6534,-58.6198,91.4,25,0,17.27,AR,2021-01-21 22:15:04,clear sky
250,Buedu,8.2803,-10.3719,70.39,35,51,1.25,SL,2021-01-21 22:15:04,broken clouds
251,Labuhan,-6.8844,112.2051,77.7,87,99,7.54,ID,2021-01-21 22:15:05,overcast clouds
252,Rudnogorsk,57.2639,103.7519,-21.21,88,99,2.42,RU,2021-01-21 22:15:05,overcast clouds
253,Donegal,54.65,-8.1167,36.54,82,0,7.92,IE,2021-01-21 22:15:06,clear sky
254,Contamana,-7.3333,-75.0167,87.08,50,53,2.1,PE,2021-01-21 22:15:06,broken clouds
255,Azul,-36.777,-59.8585,87.01,40,0,5.01,AR,2021-01-21 22:15:06,clear sky
256,Fuxin,42.0156,121.6589,11.57,89,0,6.51,CN,2021-01-21 22:15:06,clear sky
257,Kaitangata,-46.2817,169.8464,62.01,59,65,13.0,NZ,2021-01-21 22:15:06,broken clouds
258,Kyra,49.5776,111.9753,-3.06,84,7,2.06,RU,2021-01-21 22:15:06,clear sky
259,Seda,57.65,25.75,35.01,92,100,5.01,LV,2021-01-21 22:15:07,overcast clouds
260,Gigmoto,13.7796,124.39,79.2,83,93,6.13,PH,2021-01-21 22:15:07,overcast clouds
261,Mursalimkino,55.0379,58.5585,-2.72,90,100,6.78,RU,2021-01-21 22:15:07,overcast clouds
262,Novaya Zaimka,56.4857,66.9241,-12.8,90,100,8.05,RU,2021-01-21 22:15:07,overcast clouds
263,Nome,64.5011,-165.4064,30.2,80,90,18.41,US,2021-01-21 22:15:07,overcast clouds
264,Vung Tau,10.346,107.0843,74.57,87,75,3.38,VN,2021-01-21 22:15:07,broken clouds
265,Muisne,0.6,-80.0333,78.8,89,90,3.44,EC,2021-01-21 22:15:08,light rain
266,Scarborough,54.2797,-0.4044,37.99,83,0,5.01,GB,2021-01-21 22:13:44,clear sky
267,Mombetsu,44.3525,143.3525,28.0,69,100,5.01,JP,2021-01-21 22:15:08,overcast clouds
268,Hirna,9.2167,41.1,56.14,38,28,2.15,ET,2021-01-21 22:15:09,scattered clouds
269,Rantepao,-2.9701,119.8978,64.87,84,2,2.89,ID,2021-01-21 22:15:09,clear sky
270,Necochea,-38.5473,-58.7368,87.01,42,9,10.02,AR,2021-01-21 22:15:09,clear sky
271,Karratha,-20.7377,116.8463,82.45,70,83,4.12,AU,2021-01-21 22:15:09,broken clouds
272,Puerto Del Rosario,28.5004,-13.8627,66.2,77,75,6.91,ES,2021-01-21 22:15:09,broken clouds
273,Pengcheng,36.4311,114.17,32.65,81,98,4.16,CN,2021-01-21 22:15:09,overcast clouds
274,Nyrob,60.733,56.7202,-6.47,90,89,3.65,RU,2021-01-21 22:15:09,overcast clouds
275,Pavlovka,52.6897,47.1405,9.9,95,100,12.91,RU,2021-01-21 22:15:09,snow
276,Iguape,-24.7081,-47.5553,76.71,88,100,10.25,BR,2021-01-21 22:15:09,overcast clouds
277,Peleduy,59.6289,112.7406,-20.69,85,100,0.89,RU,2021-01-21 22:15:10,overcast clouds
278,Manokwari,-0.8667,134.0833,78.48,74,69,2.93,ID,2021-01-21 22:12:01,broken clouds
279,Carnarvon,-24.8667,113.6333,77.0,94,75,12.66,AU,2021-01-21 22:15:10,broken clouds
280,Kodiak,57.79,-152.4072,41.0,81,90,20.71,US,2021-01-21 22:15:10,moderate rain
281,Piopio,-38.4667,175.0167,68.0,67,35,3.0,NZ,2021-01-21 22:15:10,scattered clouds
282,Petawawa,45.9001,-77.3328,32.0,93,90,6.91,CA,2021-01-21 22:11:24,overcast clouds
283,Kampot,10.6167,104.1833,71.6,83,0,2.3,KH,2021-01-21 22:15:10,clear sky
284,Trelew,-43.249,-65.3051,89.83,23,4,17.25,AR,2021-01-21 22:15:10,clear sky
285,Rio Gallegos,-51.6226,-69.2181,66.2,24,40,20.71,AR,2021-01-21 22:10:57,scattered clouds
286,Mariental,-24.6333,17.9667,85.77,32,37,10.18,NA,2021-01-21 22:15:11,scattered clouds
287,Skibbereen,51.55,-9.2667,35.6,93,20,9.22,IE,2021-01-21 22:15:11,few clouds
288,Kot Kapura,30.5833,74.9,48.99,47,0,4.45,IN,2021-01-21 22:15:11,clear sky
289,La Ronge,55.1001,-105.2842,12.2,79,100,8.05,CA,2021-01-21 22:15:11,overcast clouds
290,Poum,-20.2333,164.0167,79.16,73,99,10.38,NC,2021-01-21 22:15:11,overcast clouds
291,Snyder,32.7179,-100.9176,60.8,55,1,10.36,US,2021-01-21 22:15:11,clear sky
292,Bridlington,54.0831,-0.1919,37.99,82,0,7.0,GB,2021-01-21 22:15:11,clear sky
293,Port-Gentil,-0.7193,8.7815,80.6,89,40,4.61,GA,2021-01-21 22:14:12,light rain
294,Salinopolis,-0.6136,-47.3561,79.25,85,96,11.59,BR,2021-01-21 22:15:11,moderate rain
295,Cairns,-16.9167,145.7667,78.8,73,100,10.36,AU,2021-01-21 22:15:12,overcast clouds
296,Leningradskiy,69.3833,178.4167,-13.49,87,100,7.34,RU,2021-01-21 22:15:12,overcast clouds
297,Fare,-16.7,-151.0167,81.32,74,22,15.7,PF,2021-01-21 22:15:12,few clouds
298,Solnechnyy,50.7214,136.6319,-9.9,88,97,1.74,RU,2021-01-21 22:15:12,overcast clouds
299,Madingou,-4.1536,13.55,74.84,92,99,1.66,CG,2021-01-21 22:15:12,moderate rain
300,Lakes Entrance,-37.8811,147.981,75.0,61,68,1.01,AU,2021-01-21 22:15:12,broken clouds
301,Buta,2.7858,24.73,70.23,47,62,1.19,CD,2021-01-21 22:15:12,broken clouds
302,Brae,60.3964,-1.353,41.0,87,75,23.02,GB,2021-01-21 22:15:12,light rain
303,Salekhard,66.53,66.6019,-38.7,79,23,10.85,RU,2021-01-21 22:15:12,few clouds
304,Nouadhibou,20.931,-17.0347,68.0,42,97,13.8,MR,2021-01-21 22:15:13,overcast clouds
305,Beringovskiy,63.05,179.3167,-0.42,92,100,10.49,RU,2021-01-21 22:12:12,light snow
306,Antofagasta,-23.65,-70.4,69.8,68,20,17.27,CL,2021-01-21 22:15:13,few clouds
307,Bucerias,20.75,-105.3333,80.6,61,20,6.91,MX,2021-01-21 22:15:13,few clouds
308,La Ferte-Bernard,48.1863,0.6536,50.0,81,90,14.97,FR,2021-01-21 22:15:13,overcast clouds
309,Ayame,5.6083,-3.1563,75.58,91,77,4.03,CI,2021-01-21 22:15:13,broken clouds
310,Slonim,53.0867,25.3219,30.13,98,98,8.19,BY,2021-01-21 22:15:13,overcast clouds
311,Mount Gambier,-37.8333,140.7667,60.8,82,75,5.75,AU,2021-01-21 22:15:13,broken clouds
312,Faya,18.3851,42.4509,53.6,32,9,5.75,SA,2021-01-21 22:15:14,dust
313,Kahului,20.8947,-156.47,80.6,54,40,21.85,US,2021-01-21 22:15:14,scattered clouds
314,Insar,53.8653,44.3738,10.4,95,100,8.3,RU,2021-01-21 22:15:14,overcast clouds
315,Sydney Mines,46.2367,-60.2177,21.0,68,40,5.75,CA,2021-01-21 22:15:14,scattered clouds
316,Wajima,37.4,136.9,51.93,77,100,16.37,JP,2021-01-21 22:15:14,light rain
317,Freeport,40.6576,-73.5832,39.99,48,1,5.75,US,2021-01-21 22:10:35,clear sky
318,Kaeo,-35.1,173.7833,68.0,68,10,3.0,NZ,2021-01-21 22:15:14,clear sky
319,Labuan,5.2767,115.2417,75.2,94,20,11.83,MY,2021-01-21 22:15:14,few clouds
320,Nabire,-3.3667,135.4833,77.34,83,96,2.75,ID,2021-01-21 22:15:14,overcast clouds
321,Kathu,7.9178,98.3332,82.0,94,20,2.3,TH,2021-01-21 22:15:15,few clouds
322,Ulaangom,49.9811,92.0667,-14.75,85,43,1.32,MN,2021-01-21 22:15:15,scattered clouds
323,Mayo,38.8876,-76.5119,51.8,32,1,4.61,US,2021-01-21 22:15:15,clear sky
324,Mednogorskiy,43.9178,41.1825,19.6,85,0,7.05,RU,2021-01-21 22:15:15,clear sky
325,Yaritagua,10.08,-69.1261,80.6,61,40,5.75,VE,2021-01-21 22:15:15,scattered clouds
326,Dunedin,-45.8742,170.5036,60.21,58,88,5.57,NZ,2021-01-21 22:15:15,overcast clouds
327,Vilyuysk,63.7553,121.6247,-50.53,76,100,3.71,RU,2021-01-21 22:15:15,overcast clouds
328,Caraballeda,10.6112,-66.8522,84.2,74,20,3.44,VE,2021-01-21 22:15:15,few clouds
329,Jackson,42.4165,-122.8345,50.0,46,90,2.19,US,2021-01-21 22:15:15,overcast clouds
330,Katiola,8.1333,-5.1,82.4,18,0,4.61,CI,2021-01-21 22:15:16,clear sky
331,Mankera,31.3866,71.4407,57.83,32,2,7.65,PK,2021-01-21 22:15:16,clear sky
332,San Patricio,28.017,-97.5169,66.2,94,90,4.32,US,2021-01-21 22:15:16,overcast clouds
333,Teya,60.3778,92.6267,-21.93,84,100,3.27,RU,2021-01-21 22:15:16,overcast clouds
334,Terrace Bay,48.7834,-87.1,10.4,72,90,16.11,CA,2021-01-21 22:15:16,light snow
335,Takoradi,4.8845,-1.7554,79.41,84,75,6.64,GH,2021-01-21 22:15:16,broken clouds
336,Ponta Do Sol,32.6667,-17.1,63.0,87,44,4.0,PT,2021-01-21 22:15:16,scattered clouds
337,Siniscola,40.5719,9.6922,50.0,87,20,3.44,IT,2021-01-21 22:15:16,few clouds
338,Dhidhdhoo,6.8833,73.1,82.35,71,95,6.67,MV,2021-01-21 22:15:16,overcast clouds
339,Betioky,-23.7167,44.3833,80.24,74,69,4.85,MG,2021-01-21 22:15:16,broken clouds
340,Alyangula,-13.8483,136.4192,78.8,100,100,5.7,AU,2021-01-21 22:15:17,overcast clouds
341,Kandrian,-6.2167,149.55,81.82,75,100,12.97,PG,2021-01-21 22:15:17,overcast clouds
342,Ankang,32.68,109.0172,46.02,55,100,1.21,CN,2021-01-21 22:15:17,overcast clouds
343,Estelle,29.8458,-90.1067,73.99,78,75,11.5,US,2021-01-21 22:15:17,broken clouds
344,Srednekolymsk,67.45,153.6833,-41.17,81,22,3.87,RU,2021-01-21 22:15:17,few clouds
345,Besikduzu,41.052,39.2284,39.2,56,0,5.75,TR,2021-01-21 22:15:17,clear sky
346,Oyama,36.3,139.8,41.0,93,20,2.46,JP,2021-01-21 22:15:17,mist
347,Sidmouth,50.6909,-3.2397,37.99,88,10,1.01,GB,2021-01-21 22:15:17,clear sky
348,Laranjeiras Do Sul,-25.4078,-52.4161,66.76,99,100,4.79,BR,2021-01-21 22:15:17,light rain
349,Tongren,27.7172,109.1853,47.37,88,99,1.07,CN,2021-01-21 22:15:18,overcast clouds
350,Naze,28.3667,129.4833,66.2,94,75,11.5,JP,2021-01-21 22:15:18,light rain
351,Sisimiut,66.9395,-53.6735,21.33,80,0,6.6,GL,2021-01-21 22:15:18,clear sky
352,Pascagoula,30.3658,-88.5561,66.0,82,90,5.75,US,2021-01-21 22:15:18,overcast clouds
353,Ishigaki,24.3448,124.1572,73.4,100,75,12.66,JP,2021-01-21 22:15:18,broken clouds
354,Ostersund,63.1792,14.6357,24.8,93,90,12.66,SE,2021-01-21 22:15:18,light snow
355,Kieta,-6.2167,155.6333,81.79,66,97,7.87,PG,2021-01-21 22:15:18,overcast clouds
356,Eucaliptus,-17.5833,-67.5167,56.43,54,98,13.73,BO,2021-01-21 22:15:18,light rain
357,Alekseyevskaya,50.2896,42.1845,17.01,86,100,8.99,RU,2021-01-21 22:15:19,light snow
358,Rock Sound,24.9,-76.2,71.56,60,89,5.88,BS,2021-01-21 22:13:07,overcast clouds
359,Marsa Matruh,31.3525,27.2453,48.2,81,0,6.73,EG,2021-01-21 22:15:19,clear sky
360,Pahrump,36.2083,-115.9839,62.01,38,0,3.0,US,2021-01-21 22:12:48,clear sky
361,Kearney,40.6995,-99.0815,48.2,29,1,18.41,US,2021-01-21 22:15:19,clear sky
362,Itarema,-2.9248,-39.9167,79.61,78,86,13.35,BR,2021-01-21 22:15:19,overcast clouds
363,Hurghada,27.2574,33.8129,57.2,44,0,11.5,EG,2021-01-21 22:13:38,clear sky
364,Touho,-20.7833,165.2333,77.72,81,93,16.67,NC,2021-01-21 22:15:19,light rain
365,Warmbad,-28.45,18.7333,85.33,23,82,13.11,NA,2021-01-21 22:15:19,broken clouds
366,Huarmey,-10.0681,-78.1522,74.66,71,16,11.88,PE,2021-01-21 22:15:20,few clouds
367,Along,28.1667,94.7667,46.54,80,9,1.97,IN,2021-01-21 22:15:20,clear sky
368,Newport,51.5877,-2.9984,41.0,94,1,6.69,GB,2021-01-21 22:15:20,clear sky
369,Tarakan,3.3,117.6333,76.6,87,100,4.81,ID,2021-01-21 22:14:07,overcast clouds
370,Okhotsk,59.3833,143.3,-9.56,82,100,11.45,RU,2021-01-21 22:15:20,overcast clouds
371,Saldanha,-33.0117,17.9442,71.6,68,30,8.05,ZA,2021-01-21 22:15:20,scattered clouds
372,Amapa,1.0,-52.0,73.24,96,100,3.67,BR,2021-01-21 22:13:10,moderate rain
373,Hambantota,6.1241,81.1185,76.37,89,36,10.98,LK,2021-01-21 22:15:20,scattered clouds
374,Port Moresby,-9.4431,147.1797,75.2,94,40,8.05,PG,2021-01-21 22:15:20,scattered clouds
375,Mastic Beach,40.7668,-72.8521,39.0,52,1,4.61,US,2021-01-21 22:12:17,clear sky
376,The Pas,53.8251,-101.2541,5.0,78,90,5.75,CA,2021-01-21 22:15:21,light snow
377,Inta,66.0317,60.1659,-13.81,84,100,8.48,RU,2021-01-21 22:15:21,overcast clouds
378,Harper,4.375,-7.7169,78.64,84,0,7.14,LR,2021-01-21 22:15:21,clear sky
379,Inuvik,68.3499,-133.7218,1.4,85,62,3.44,CA,2021-01-21 22:15:03,broken clouds
380,Kedrovyy,56.1667,91.8167,-7.6,77,40,2.24,RU,2021-01-21 22:15:21,light snow
381,Coos Bay,43.3665,-124.2179,61.0,76,90,5.75,US,2021-01-21 22:15:21,overcast clouds
382,Havre,49.5833,0.3333,41.0,93,0,6.91,FR,2021-01-21 22:15:21,clear sky
383,Tando Ghulam Ali,25.1311,68.8676,63.84,91,0,12.82,PK,2021-01-21 22:12:14,clear sky
384,Gravelbourg,49.8834,-106.5512,12.2,73,83,13.8,CA,2021-01-21 22:15:22,broken clouds
385,Oriximina,-1.7656,-55.8661,77.72,85,50,3.0,BR,2021-01-21 22:15:22,light rain
386,Williamsburg,37.2707,-76.7075,55.4,50,1,7.43,US,2021-01-21 22:15:22,clear sky
387,Buritis,-15.6178,-46.4233,74.77,69,60,4.36,BR,2021-01-21 22:15:22,broken clouds
388,Tigzirt,36.8886,4.1198,54.64,75,67,10.07,DZ,2021-01-21 22:15:22,broken clouds
389,Kondinskoye,59.6481,67.41,-12.68,90,99,6.42,RU,2021-01-21 22:15:22,overcast clouds
390,Tuzha,57.6062,47.936,1.33,94,91,3.71,RU,2021-01-21 22:15:22,overcast clouds
391,Richards Bay,-28.783,32.0377,75.6,80,97,1.32,ZA,2021-01-21 22:15:22,overcast clouds
392,Kozhva,65.1073,57.0459,-7.33,91,100,3.27,RU,2021-01-21 22:15:22,overcast clouds
393,Kaberamaido,1.7389,33.1594,75.04,44,98,3.53,UG,2021-01-21 22:15:23,overcast clouds
394,Obodivka,48.4051,29.2477,27.0,89,71,8.52,UA,2021-01-21 22:15:23,broken clouds
395,Sorong,-0.8833,131.25,79.09,85,62,7.78,ID,2021-01-21 22:15:23,broken clouds
396,Ulladulla,-35.35,150.4667,75.99,73,0,6.91,AU,2021-01-21 22:15:23,clear sky
397,Nhulunbuy,-12.2333,136.7667,77.0,94,97,3.44,AU,2021-01-21 22:15:23,overcast clouds
398,Cootamundra,-34.65,148.0333,79.0,49,0,4.0,AU,2021-01-21 22:15:23,clear sky
399,Nishihara,26.1842,127.7558,66.2,94,75,8.05,JP,2021-01-21 22:15:23,light rain
400,Haines Junction,60.7522,-137.5108,1.4,78,28,1.14,CA,2021-01-21 22:15:24,scattered clouds
401,Ardesen,41.1911,40.9875,37.4,70,0,23.02,TR,2021-01-21 22:15:24,clear sky
402,Vao,-22.6667,167.4833,74.97,80,0,20.29,NC,2021-01-21 22:15:24,clear sky
403,Korla,41.7597,86.1469,21.33,85,25,5.53,CN,2021-01-21 22:15:24,scattered clouds
404,Kajaani,64.2273,27.7285,8.6,85,90,19.57,FI,2021-01-21 22:15:24,snow
405,Caravelas,-17.7125,-39.2481,76.17,75,2,5.48,BR,2021-01-21 22:15:24,clear sky
406,Oloron-Sainte-Marie,43.1944,-0.6107,60.8,44,0,19.57,FR,2021-01-21 22:15:24,clear sky
407,Pokhara,28.2333,83.9833,48.79,71,0,2.98,NP,2021-01-21 22:15:25,clear sky
408,Slobozia,46.7281,29.7078,33.8,86,0,6.91,MD,2021-01-21 22:15:25,clear sky
409,Sovetskiy,61.3614,63.5842,-12.89,88,100,9.44,RU,2021-01-21 22:15:25,overcast clouds
410,Nadym,65.5333,72.5167,-38.09,80,0,10.87,RU,2021-01-21 22:13:13,clear sky
411,Dancheng,33.6333,115.1833,40.17,70,90,4.32,CN,2021-01-21 22:15:25,overcast clouds
412,Ilulissat,69.2167,-51.1,14.0,67,3,4.61,GL,2021-01-21 22:15:25,clear sky
413,Lompoc,34.6391,-120.4579,66.99,48,0,13.8,US,2021-01-21 22:15:26,clear sky
414,Nouna,12.7333,-3.8667,72.68,19,0,9.95,BF,2021-01-21 22:15:12,clear sky
415,Klaksvik,62.2266,-6.589,35.6,75,75,28.77,FO,2021-01-21 22:15:26,light snow
416,Oistins,13.0667,-59.5333,77.0,78,20,11.5,BB,2021-01-21 22:15:26,few clouds
417,Zhuhai,22.2769,113.5678,66.2,88,20,4.61,CN,2021-01-21 22:14:26,light rain
418,Bathsheba,13.2167,-59.5167,77.0,78,20,11.5,BB,2021-01-21 22:15:26,few clouds
419,Jacqueville,5.2052,-4.4146,80.6,89,20,2.3,CI,2021-01-21 22:15:26,few clouds
420,Airai,-8.9266,125.4092,62.6,100,99,1.97,TL,2021-01-21 22:15:26,overcast clouds
421,Northam,51.0333,-4.2167,43.0,83,16,10.0,GB,2021-01-21 22:15:26,few clouds
422,Bella Union,-30.2752,-57.6007,80.87,66,85,8.77,UY,2021-01-21 22:15:26,overcast clouds
423,Tingi,-11.3,35.0333,66.29,93,100,3.29,TZ,2021-01-21 22:15:27,light rain
424,Turukhansk,65.8167,87.9833,-42.52,74,0,8.28,RU,2021-01-21 22:15:27,clear sky
425,College,64.8569,-147.8028,6.8,72,20,3.62,US,2021-01-21 22:15:27,few clouds
426,Tromso,69.6496,18.957,15.8,57,0,2.3,NO,2021-01-21 22:14:20,clear sky
427,Luderitz,-26.6481,15.1594,75.7,52,19,13.15,NA,2021-01-21 22:15:27,few clouds
428,Kennebunk,43.384,-70.5448,26.6,68,20,4.61,US,2021-01-21 22:15:27,light snow
429,Chara,56.9064,118.2631,-27.26,68,28,1.05,RU,2021-01-21 22:15:27,scattered clouds
430,Moose Factory,51.2585,-80.6094,14.0,79,90,6.91,CA,2021-01-21 22:15:27,light snow
431,Tuatapere,-46.1333,167.6833,57.99,81,81,13.0,NZ,2021-01-21 22:15:27,broken clouds
432,Abancay,-13.6339,-72.8814,65.21,59,79,6.6,PE,2021-01-21 22:15:28,light rain
433,Rio Grande,-32.035,-52.0986,75.99,70,9,4.0,BR,2021-01-21 22:15:28,clear sky
434,Banikoara,11.2985,2.4386,72.9,19,0,7.29,BJ,2021-01-21 22:15:28,clear sky
435,Codajas,-3.8367,-62.0569,74.88,93,83,3.4,BR,2021-01-21 22:15:28,light rain
436,Ponta Delgada,37.7333,-25.6667,57.0,76,20,8.05,PT,2021-01-21 22:15:28,few clouds
437,Aizawl,23.7333,92.7167,43.68,100,0,2.48,IN,2021-01-21 22:10:35,clear sky
438,Sabzevar,36.2126,57.6819,29.26,83,59,10.09,IR,2021-01-21 22:15:28,broken clouds
439,Barzas,55.7167,86.3167,12.2,85,40,2.24,RU,2021-01-21 22:15:28,light snow
440,Zhangjiakou,40.81,114.8794,17.33,81,0,3.71,CN,2021-01-21 22:15:28,clear sky
441,Samarkand,39.6542,66.9597,28.4,86,90,27.63,UZ,2021-01-21 22:15:28,snow
442,Imeni Poliny Osipenko,52.4201,136.4853,-16.42,84,95,2.26,RU,2021-01-21 22:15:28,overcast clouds
443,Pevek,69.7008,170.3133,-20.36,86,100,1.86,RU,2021-01-21 22:15:29,overcast clouds
444,Husavik,66.0449,-17.3389,28.4,93,75,14.97,IS,2021-01-21 22:15:29,light snow
445,Aksarka,66.5606,67.7975,-40.74,80,64,10.56,RU,2021-01-21 22:15:29,broken clouds
446,Aleksandrov Gay,50.147,48.5704,8.53,94,100,12.12,RU,2021-01-21 22:15:29,overcast clouds
447,Bayir,37.2687,28.2167,41.0,93,75,2.3,TR,2021-01-21 22:15:29,broken clouds
448,Yulara,-25.2406,130.9889,84.2,12,97,6.91,AU,2021-01-21 22:15:29,overcast clouds
449,Trairi,-3.2778,-39.2689,78.93,80,80,8.9,BR,2021-01-21 22:15:29,broken clouds
450,Barra,-11.0894,-43.1417,82.26,52,48,2.15,BR,2021-01-21 22:15:29,scattered clouds
451,Honiara,-9.4333,159.95,81.09,77,94,7.54,SB,2021-01-21 22:11:38,overcast clouds
452,Komsomolskiy,40.4272,71.7189,39.2,65,100,6.91,UZ,2021-01-21 22:15:29,overcast clouds
453,Tignere,7.3667,12.65,63.88,27,41,2.44,CM,2021-01-21 22:15:30,scattered clouds
454,Torbat-E Jam,35.244,60.6225,28.94,89,86,11.05,IR,2021-01-21 22:15:30,overcast clouds
455,Rivadavia,-33.1905,-68.4608,96.8,9,20,14.97,AR,2021-01-21 22:15:30,few clouds
456,Miandoab,36.9694,46.1027,10.4,79,0,13.8,IR,2021-01-21 22:12:29,clear sky
457,Adwa,14.1646,38.8955,56.25,72,69,4.9,ET,2021-01-21 22:15:30,broken clouds
458,Dingle,10.9995,122.6711,74.73,87,62,0.65,PH,2021-01-21 22:15:30,light rain
459,Vitim,59.4511,112.5578,-19.19,85,100,0.83,RU,2021-01-21 22:15:30,overcast clouds
460,Egvekinot,66.3167,-179.1667,-10.07,89,100,20.74,RU,2021-01-21 22:15:30,overcast clouds
461,Sendhwa,21.6833,75.1,65.21,28,0,3.44,IN,2021-01-21 22:15:30,clear sky
462,Sosva,59.1766,61.8558,-19.26,88,67,5.41,RU,2021-01-21 22:15:31,broken clouds
463,Tekeli,44.83,78.8239,31.01,74,100,10.63,KZ,2021-01-21 22:15:31,overcast clouds
464,Yarada,17.65,83.2667,71.6,100,20,2.3,IN,2021-01-21 22:15:31,mist
465,Ampanihy,-24.7,44.75,80.62,78,57,4.29,MG,2021-01-21 22:15:31,broken clouds
466,Cilegon,-6.0174,106.0538,77.0,94,40,2.3,ID,2021-01-21 22:15:31,mist
467,Ponnani,10.767,75.9252,78.8,83,40,3.47,IN,2021-01-21 22:15:31,mist
468,Kruisfontein,-34.0033,24.7314,69.01,92,1,4.0,ZA,2021-01-21 22:15:31,clear sky
469,Codrington,-38.2667,141.9667,62.02,73,100,7.92,AU,2021-01-21 22:15:31,light rain
470,Tynda,55.1667,124.7167,-31.38,80,45,2.15,RU,2021-01-21 22:15:32,scattered clouds
471,Niquero,20.0431,-77.5828,80.06,70,73,13.04,CU,2021-01-21 22:15:32,broken clouds
472,Harindanga,22.0383,88.3214,62.6,82,0,5.88,IN,2021-01-21 22:15:32,mist
473,Comodoro Rivadavia,-45.8667,-67.5,89.6,27,0,16.11,AR,2021-01-21 22:15:32,clear sky
474,Luanda,-8.8368,13.2343,77.0,83,20,9.22,AO,2021-01-21 22:15:32,few clouds
475,Lagoa,39.05,-27.9833,58.66,69,93,10.85,PT,2021-01-21 22:15:32,overcast clouds
476,Ayan,56.45,138.1667,-13.83,74,100,12.62,RU,2021-01-21 22:15:32,overcast clouds
477,Krasnoselkup,65.7,82.4667,-42.32,80,18,8.97,RU,2021-01-21 22:15:32,few clouds
478,Kemijarvi,66.7131,27.4306,8.24,91,100,14.5,FI,2021-01-21 22:15:33,overcast clouds
479,Barra Do Garcas,-15.89,-52.2567,75.22,81,84,5.61,BR,2021-01-21 22:15:33,light rain
480,Angoche,-16.2325,39.9086,77.22,89,100,16.06,MZ,2021-01-21 22:15:33,light rain
481,Springbok,-29.6643,17.8865,77.27,22,46,4.83,ZA,2021-01-21 22:15:33,scattered clouds
482,Ola,59.5833,151.2833,-9.33,75,56,5.73,RU,2021-01-21 22:15:33,broken clouds
483,Lucapa,-8.4192,20.7447,66.45,98,100,2.75,AO,2021-01-21 22:15:33,light rain
484,Ajdabiya,30.7554,20.2263,51.91,47,0,8.99,LY,2021-01-21 22:15:33,clear sky
485,Boyolangu,-8.1181,111.8935,75.04,83,100,1.48,ID,2021-01-21 22:15:33,overcast clouds
486,Arlit,18.7369,7.3853,61.86,28,0,5.14,NE,2021-01-21 22:15:33,clear sky
487,Avera,33.194,-82.5271,57.2,100,90,9.22,US,2021-01-21 22:15:33,overcast clouds
488,Srandakan,-7.9386,110.2506,78.21,82,100,1.57,ID,2021-01-21 22:15:34,overcast clouds
489,Lasa,46.6166,10.7002,34.0,100,75,5.23,IT,2021-01-21 22:15:34,light rain
490,North Bend,43.4065,-124.2243,57.0,76,90,5.75,US,2021-01-21 22:15:34,overcast clouds
491,Forestville,38.8451,-76.875,53.6,32,20,10.36,US,2021-01-21 22:15:34,few clouds
492,Pandan Niog,6.2282,120.5631,81.57,73,93,1.83,PH,2021-01-21 22:15:34,overcast clouds
493,Vila Franca Do Campo,37.7167,-25.4333,57.0,76,20,8.05,PT,2021-01-21 22:15:34,few clouds
494,Leeton,-34.5667,146.4,82.0,38,0,14.97,AU,2021-01-21 22:15:34,clear sky
495,Luwuk,-0.9516,122.7875,77.45,74,22,3.15,ID,2021-01-21 22:15:34,few clouds
496,Whitianga,-36.8333,175.7,71.01,58,13,8.99,NZ,2021-01-21 22:15:34,few clouds
497,Olinda,-8.0089,-34.8553,78.8,65,75,9.22,BR,2021-01-21 22:15:35,broken clouds
498,Moerai,-22.4333,-151.3333,80.78,77,0,14.58,PF,2021-01-21 22:15:35,clear sky
499,Kavieng,-2.5744,150.7967,82.36,65,90,7.45,PG,2021-01-21 22:15:35,overcast clouds
500,Salina Cruz,16.1667,-95.2,89.02,43,0,20.27,MX,2021-01-21 22:15:35,clear sky
501,Kyren,51.6828,102.1408,14.22,84,96,2.3,RU,2021-01-21 22:15:35,overcast clouds
502,Souillac,-20.5167,57.5167,77.0,83,40,5.75,MU,2021-01-21 22:15:35,scattered clouds
503,Moroni,-11.7022,43.2551,81.43,77,64,13.58,KM,2021-01-21 22:15:35,broken clouds
504,Itoman,26.1247,127.6694,66.2,100,75,6.91,JP,2021-01-21 22:13:06,light rain
505,Vossevangen,60.623,6.4229,32.34,89,77,12.53,NO,2021-01-21 22:15:35,light snow
506,Tessalit,20.1986,1.0114,62.42,25,0,13.85,ML,2021-01-21 22:15:35,clear sky
507,Remedios,22.4947,-79.5458,75.2,57,16,10.36,CU,2021-01-21 22:15:35,few clouds
508,Maniitsoq,65.4167,-52.9,25.23,82,0,9.04,GL,2021-01-21 22:15:36,clear sky
509,Trezzano Sul Naviglio,45.4231,9.0664,37.99,100,75,2.3,IT,2021-01-21 22:15:36,light rain
510,Port Hedland,-20.3167,118.5667,84.2,54,100,17.27,AU,2021-01-21 22:15:36,overcast clouds
511,Saint-Pierre,-21.3393,55.4781,82.4,74,75,3.38,RE,2021-01-21 22:15:36,light rain
512,Umm Bab,25.2142,50.8072,59.0,64,0,25.77,QA,2021-01-21 22:15:36,clear sky
513,Tuy Hoa,13.0833,109.3,69.49,89,100,6.64,VN,2021-01-21 22:15:36,overcast clouds
514,Chai Badan,15.2,101.1333,71.01,70,0,1.54,TH,2021-01-21 22:15:36,clear sky
515,Patiya,22.2931,91.9762,57.4,90,76,2.28,BD,2021-01-21 22:15:36,broken clouds
516,Ovsyanka,55.9575,92.5519,-7.6,77,40,1.88,RU,2021-01-21 22:15:36,light snow
517,Walvis Bay,-22.9575,14.5053,70.0,77,45,8.05,NA,2021-01-21 22:15:26,scattered clouds
518,Boa Vista,2.8197,-60.6733,87.8,51,75,8.05,BR,2021-01-21 22:13:35,broken clouds
519,Homer,59.6425,-151.5483,42.8,70,90,5.75,US,2021-01-21 22:11:35,overcast clouds
520,Atar,20.5169,-13.0499,65.77,22,63,10.45,MR,2021-01-21 22:15:37,broken clouds
521,Nova Vodolaha,49.7185,35.8708,24.8,100,75,11.18,UA,2021-01-21 22:15:37,light snow
522,Gogrial,8.5332,28.1004,71.49,22,76,7.45,SS,2021-01-21 22:15:37,broken clouds
523,Tianpeng,30.9866,103.9393,46.0,1,94,3.53,CN,2021-01-21 22:15:37,overcast clouds
524,Yeppoon,-23.1333,150.7333,78.8,53,41,8.05,AU,2021-01-21 22:15:37,scattered clouds
525,West Wendover,40.7391,-114.0733,37.4,35,40,4.61,US,2021-01-21 22:12:56,scattered clouds
526,La Palma,33.8464,-118.0467,72.0,35,1,8.05,US,2021-01-21 22:15:37,clear sky
527,Novo Aripuana,-5.1206,-60.3797,73.27,98,100,3.53,BR,2021-01-21 22:15:37,overcast clouds
528,Oromocto,45.8351,-66.4792,18.0,57,75,4.61,CA,2021-01-21 22:15:38,broken clouds
529,Sangar,63.9242,127.4739,-41.15,80,100,0.98,RU,2021-01-21 22:15:38,overcast clouds
530,Moussoro,13.6408,16.4901,63.37,28,0,14.25,TD,2021-01-21 22:11:01,clear sky
531,Auki,-8.7676,160.7034,82.6,65,72,6.26,SB,2021-01-21 22:15:11,broken clouds
532,Los Naranjos,14.9,-88.05,82.4,69,40,13.8,HN,2021-01-21 22:15:38,light rain
533,Elmadag,39.9208,33.2308,27.0,79,0,1.77,TR,2021-01-21 22:13:28,clear sky
534,Alice Springs,-23.7,133.8833,86.0,12,96,6.91,AU,2021-01-21 22:15:38,overcast clouds
535,Asau,46.4333,26.4,35.01,65,78,5.5,RO,2021-01-21 22:15:38,broken clouds
536,Talnakh,69.4865,88.3972,-41.13,78,10,3.33,RU,2021-01-21 22:15:38,clear sky
537,Ca Mau,9.1769,105.15,72.91,79,85,3.38,VN,2021-01-21 22:15:38,overcast clouds
538,Zhigansk,66.7697,123.3711,-39.75,80,100,5.55,RU,2021-01-21 22:15:38,overcast clouds
539,Agadez,19.75,10.25,58.86,33,0,7.96,NE,2021-01-21 22:15:39,clear sky
540,Tarija,-21.5355,-64.7296,73.4,43,40,9.22,BO,2021-01-21 22:14:26,light rain
541,Alta Floresta,-9.8756,-56.0861,74.61,95,100,4.12,BR,2021-01-21 22:15:39,light rain
542,Taiobeiras,-15.8078,-42.2331,70.54,69,91,5.35,BR,2021-01-21 22:15:39,overcast clouds
543,Aksu,41.1231,80.2644,20.84,85,99,2.62,CN,2021-01-21 22:15:39,overcast clouds
544,Blagoyevo,63.3667,47.9167,-13.02,89,90,3.87,RU,2021-01-21 22:15:39,overcast clouds
545,Road Town,18.4167,-64.6167,78.8,73,20,4.61,VG,2021-01-21 22:13:34,few clouds
546,Pervomayskaya,43.4033,45.5261,21.2,86,0,2.24,RU,2021-01-21 22:15:39,clear sky
547,Ende,-8.8432,121.6623,78.8,77,100,4.23,ID,2021-01-21 22:15:40,overcast clouds
548,Broken Hill,-31.95,141.4333,71.6,20,0,5.75,AU,2021-01-21 22:15:40,clear sky
549,Mendeleyevo,56.0333,37.2167,15.8,79,90,4.47,RU,2021-01-21 22:15:40,snow
550,Cucutilla,7.5394,-72.7724,82.4,65,40,9.22,CO,2021-01-21 22:15:40,light rain
551,Atascocita,29.9988,-95.1766,66.99,94,90,3.8,US,2021-01-21 22:12:46,mist
552,Sinnamary,5.3833,-52.95,76.68,88,100,12.03,GF,2021-01-21 22:15:40,overcast clouds
553,Van Buren,35.4368,-94.3483,53.01,71,1,4.61,US,2021-01-21 22:13:31,clear sky
554,Machico,32.7,-16.7667,64.4,82,20,3.44,PT,2021-01-21 22:15:40,few clouds
555,Tahoua,14.8888,5.2692,68.0,19,0,6.91,NE,2021-01-21 22:15:40,dust
556,Lloydminster,53.2835,-110.0016,21.2,86,90,10.36,CA,2021-01-21 22:14:57,overcast clouds
557,Henties Bay,-22.116,14.2845,70.0,85,46,3.71,NA,2021-01-21 22:15:41,scattered clouds
558,Mairana,-18.1167,-63.9333,68.56,57,14,3.36,BO,2021-01-21 22:15:41,few clouds
559,Omis,43.4447,16.6886,55.4,82,75,14.97,HR,2021-01-21 22:15:41,light rain
560,Dogondoutchi,13.6393,4.0287,69.73,21,0,11.59,NE,2021-01-21 22:15:41,clear sky
561,Puerto Leguizamo,-0.1934,-74.7819,80.87,80,6,2.19,CO,2021-01-21 22:15:41,clear sky
562,Mahanoro,-19.9,48.8,78.71,91,100,6.51,MG,2021-01-21 22:15:41,overcast clouds
563,Beatrice,40.2681,-96.747,48.2,40,1,14.97,US,2021-01-21 22:15:41,clear sky
564,Ondjiva,-17.0667,15.7333,67.95,74,100,5.03,AO,2021-01-21 22:15:42,overcast clouds
565,Takab,36.4009,47.1133,9.3,87,46,2.46,IR,2021-01-21 22:15:42,scattered clouds
566,Baherden,38.4362,57.4316,28.56,96,94,8.93,TM,2021-01-21 22:15:42,overcast clouds
567,Meulaboh,4.1363,96.1285,75.29,88,98,3.74,ID,2021-01-21 22:15:42,overcast clouds
568,Ust-Nera,64.5667,143.2,-30.19,75,53,2.3,RU,2021-01-21 22:15:42,broken clouds
569,Indianola,41.3581,-93.5574,39.99,52,20,19.57,US,2021-01-21 22:15:42,few clouds
570,El Cairo,4.7591,-76.2223,77.0,65,40,6.91,CO,2021-01-21 22:15:42,scattered clouds
571,Hervey Bay,-25.2986,152.8535,75.0,74,5,3.0,AU,2021-01-21 22:15:42,clear sky
572,Shihezi,44.3,86.0333,7.03,91,62,1.5,CN,2021-01-21 23:22:45,broken clouds
573,Moletai,55.2333,25.4167,34.0,93,0,13.8,LT,2021-01-21 23:22:45,clear sky
574,Paracuru,-3.41,-39.0306,81.0,76,61,17.0,BR,2021-01-21 23:22:45,broken clouds
575,Pacific Grove,36.6177,-121.9166,57.0,71,1,8.05,US,2021-01-21 23:18:02,clear sky
576,Cascais,38.6979,-9.4215,59.0,100,95,20.38,PT,2021-01-21 23:22:45,overcast clouds
577,Edson,53.5835,-116.4356,26.6,59,90,9.22,CA,2021-01-21 23:22:45,overcast clouds
578,Okoneshnikovo,54.8377,75.0834,-15.45,89,65,9.06,RU,2021-01-21 23:22:46,broken clouds
579,Garowe,8.4054,48.4845,69.21,79,11,12.12,SO,2021-01-21 23:22:46,few clouds
580,Shingu,33.7333,135.9833,53.6,94,75,2.3,JP,2021-01-21 23:22:46,broken clouds
581,Bodo,67.28,14.405,21.2,58,75,37.98,NO,2021-01-21 23:22:46,light snow
582,Mattru,7.6244,-11.8332,74.93,89,40,2.17,SL,2021-01-21 23:22:46,scattered clouds
583,Santa Cruz,-17.8,-63.1667,87.8,40,20,5.75,BO,2021-01-21 23:22:46,few clouds
584,Pangkalanbuun,-2.6833,111.6167,73.13,97,73,2.37,ID,2021-01-21 23:19:06,broken clouds
585,Fortuna,40.5982,-124.1573,59.0,71,20,6.11,US,2021-01-21 23:22:46,few clouds
586,Ginda,30.6945,78.4932,45.86,37,2,5.57,IN,2021-01-21 23:22:46,clear sky
587,Ahuimanu,21.4447,-157.8378,82.4,61,75,10.36,US,2021-01-21 23:22:47,broken clouds
588,Nanga Eboko,4.6833,12.3667,66.63,37,2,1.68,CM,2021-01-21 23:22:47,clear sky
589,Atambua,-9.1061,124.8925,77.05,83,97,1.5,ID,2021-01-21 23:22:47,overcast clouds
590,Pyay,18.8167,95.2167,63.07,78,21,1.63,MM,2021-01-21 23:21:02,few clouds
591,Damara,4.9608,18.7035,82.4,69,4,1.7,CF,2021-01-21 23:22:47,clear sky
592,Filingue,14.3521,3.3168,69.3,21,0,12.75,NE,2021-01-21 23:22:47,clear sky
593,Mlonggo,-6.5333,110.7,76.17,91,100,9.24,ID,2021-01-21 23:22:47,overcast clouds
594,Beloha,-25.1667,45.05,78.91,85,41,7.96,MG,2021-01-21 23:22:47,light rain
595,Maarianhamina,60.0973,19.9348,39.2,87,0,13.8,AX,2021-01-21 23:22:47,clear sky
596,Deputatskiy,69.3,139.9,-32.66,84,100,3.87,RU,2021-01-21 23:22:47,overcast clouds
597,Rocha,-34.4833,-54.3333,69.12,79,0,8.72,UY,2021-01-21 23:22:47,clear sky
598,Mount Isa,-20.7333,139.5,84.2,61,41,11.5,AU,2021-01-21 23:22:48,scattered clouds
599,Forbes,-33.3833,148.0167,84.0,38,0,1.99,AU,2021-01-21 23:22:48,clear sky
600,Muli,2.9167,73.5667,82.38,66,52,7.05,MV,2021-01-21 23:22:48,broken clouds
601,Ust-Tarka,55.5672,75.705,-13.99,89,93,8.66,RU,2021-01-21 23:22:48,overcast clouds
602,Adre,13.4667,22.2,59.14,31,5,17.69,TD,2021-01-21 23:22:48,clear sky
603,Galeana,24.8333,-100.0667,67.84,52,35,2.39,MX,2021-01-21 23:22:48,scattered clouds
604,Acapulco,16.8634,-99.8901,84.2,70,1,8.05,MX,2021-01-21 23:18:41,clear sky
605,Shache,38.4167,77.2406,19.99,91,3,2.06,CN,2021-01-21 23:22:48,clear sky
606,Marawi,7.9986,124.2928,75.0,92,98,4.0,PH,2021-01-21 23:22:48,overcast clouds
607,Esfarayen,37.0765,57.5101,19.4,79,90,6.38,IR,2021-01-21 23:22:48,light snow
608,Kanchanaburi,14.6333,99.1,66.13,63,0,2.26,TH,2021-01-21 23:22:49,clear sky
609,Port-Cartier,50.0334,-66.8654,12.2,57,63,6.91,CA,2021-01-21 23:22:49,broken clouds
610,Oranjemund,-28.55,16.4333,67.87,76,56,2.98,NA,2021-01-21 23:22:49,broken clouds
611,Mandali,33.7499,45.5541,43.77,60,0,11.5,IQ,2021-01-21 23:22:49,clear sky
612,Fairbanks,64.8378,-147.7164,6.8,78,20,3.44,US,2021-01-21 23:22:49,few clouds
613,Ovalle,-30.5983,-71.2003,74.84,43,4,5.95,CL,2021-01-21 23:22:50,clear sky
614,Quelimane,-17.8786,36.8883,77.0,88,75,16.11,MZ,2021-01-21 23:22:50,moderate rain
615,Tiznit,29.5833,-9.5,54.72,73,0,1.16,MA,2021-01-21 23:22:50,clear sky
616,Saint Pete Beach,27.7253,-82.7412,66.0,68,1,6.91,US,2021-01-21 23:20:33,clear sky
617,Zhezkazgan,47.8043,67.7144,0.03,89,100,9.71,KZ,2021-01-21 23:22:50,overcast clouds
618,Teguise,29.0605,-13.564,62.6,82,20,5.75,ES,2021-01-21 23:18:12,few clouds
619,Marystown,47.1666,-55.1483,25.68,97,100,21.07,CA,2021-01-21 23:22:51,snow
620,Kaniama,-7.5667,24.1833,66.33,96,100,3.33,CD,2021-01-21 23:22:51,overcast clouds
621,Waingapu,-9.6567,120.2641,79.74,76,93,5.79,ID,2021-01-21 23:22:51,overcast clouds
622,Ha Tinh,18.3333,105.9,63.91,91,96,2.48,VN,2021-01-21 23:22:51,overcast clouds
623,Hualmay,-11.0964,-77.6139,73.0,74,39,10.38,PE,2021-01-21 23:22:51,scattered clouds
624,Toora-Khem,52.4675,96.11,2.16,91,97,1.66,RU,2021-01-21 23:22:51,overcast clouds
625,Vila,42.0304,-8.1588,51.01,94,100,35.99,PT,2021-01-21 23:22:51,overcast clouds
626,Namibe,-15.1961,12.1522,73.36,76,100,7.81,AO,2021-01-21 23:22:52,overcast clouds
627,Mahibadhoo,3.7833,72.9667,82.4,65,61,5.97,MV,2021-01-21 23:22:52,broken clouds
628,Dabaca,46.9833,23.6667,27.0,100,75,2.3,RO,2021-01-21 23:22:52,fog
629,Inhambane,-23.865,35.3833,74.26,82,18,9.82,MZ,2021-01-21 23:22:52,few clouds
630,Minbu,20.1833,94.8833,62.08,77,1,5.55,MM,2021-01-21 23:22:52,clear sky
631,Kultayevo,57.8943,55.9392,-5.8,84,75,4.47,RU,2021-01-21 23:22:52,light snow
632,Namatanai,-3.6667,152.4333,82.96,60,89,7.31,PG,2021-01-21 23:22:52,overcast clouds
633,Charagua,-19.8,-63.2167,80.6,47,13,4.29,BO,2021-01-21 23:22:52,few clouds
634,Butajira,8.1167,38.3667,57.33,36,22,7.67,ET,2021-01-21 23:22:52,few clouds
635,Gaoua,10.2992,-3.2508,73.47,19,0,6.55,BF,2021-01-21 23:22:53,clear sky
636,Kovur,14.4833,79.9833,72.07,96,14,6.02,IN,2021-01-21 23:22:53,few clouds
637,Vaitape,-16.5167,-151.75,81.46,74,8,14.88,PF,2021-01-21 23:22:53,clear sky
638,Bud,39.447,-86.1758,44.6,42,1,8.05,US,2021-01-21 23:22:53,clear sky
639,Praia Da Vitoria,38.7333,-27.0667,62.6,94,20,6.17,PT,2021-01-21 23:22:53,few clouds
640,Simao,22.7886,100.9748,46.87,80,12,1.23,CN,2021-01-21 23:22:53,few clouds
641,Howard Springs,-12.497,131.047,86.0,79,75,8.05,AU,2021-01-21 23:22:53,light rain
642,Qui Nhon,13.7667,109.2333,69.21,87,99,8.97,VN,2021-01-21 23:22:53,overcast clouds
643,Paamiut,61.994,-49.6678,24.66,86,0,8.23,GL,2021-01-21 23:22:53,clear sky
644,Rincon,32.296,-81.2354,62.6,72,90,11.5,US,2021-01-21 23:22:53,overcast clouds
645,Cockburn Town,21.4612,-71.1419,75.2,73,40,8.05,TC,2021-01-21 23:22:54,scattered clouds
646,Evanston,42.0411,-87.6901,37.99,60,20,13.8,US,2021-01-21 23:22:54,few clouds
647,Independence,39.0911,-94.4155,55.4,28,1,3.44,US,2021-01-21 23:22:54,clear sky
648,Shahr-E Babak,30.1165,55.1186,33.6,75,56,9.13,IR,2021-01-21 23:22:54,broken clouds
649,Tanete,-3.9443,119.7848,77.97,82,34,1.23,ID,2021-01-21 23:22:54,scattered clouds
650,Mingaora,34.7758,72.3625,46.08,38,79,5.88,PK,2021-01-21 23:22:54,broken clouds
651,Amherst Center,42.3754,-72.5192,28.99,76,65,4.27,US,2021-01-21 23:22:54,broken clouds
652,Erenhot,43.6475,111.9767,6.96,88,0,5.39,CN,2021-01-21 23:22:54,clear sky
653,Amursk,50.2261,136.8994,-11.9,89,94,4.83,RU,2021-01-21 23:22:54,overcast clouds
654,Buraydah,26.326,43.975,42.8,65,0,4.61,SA,2021-01-21 23:22:55,clear sky
655,Jutiapa,14.2833,-89.9,84.2,45,0,8.05,GT,2021-01-21 23:22:55,clear sky
656,Houma,29.5958,-90.7195,70.0,78,90,9.22,US,2021-01-21 23:22:55,overcast clouds
657,Hobyo,5.3505,48.5268,78.48,82,89,19.91,SO,2021-01-21 23:22:55,light rain
658,Yerbogachen,61.2767,108.0108,-44.81,78,48,3.27,RU,2021-01-21 23:22:55,scattered clouds
659,Fereydun Kenar,36.6864,52.5225,33.8,100,75,2.3,IR,2021-01-21 23:22:55,broken clouds
660,Shadrinsk,56.0852,63.6335,-6.16,91,79,6.22,RU,2021-01-21 23:22:55,broken clouds
661,Agnibilekrou,7.1344,-3.2047,73.89,66,1,2.68,CI,2021-01-21 23:22:55,clear sky
662,Alexander City,32.944,-85.9539,57.2,100,90,5.44,US,2021-01-21 23:22:55,overcast clouds
663,Pionerskiy,54.9508,20.2275,39.2,81,0,11.18,RU,2021-01-21 23:22:56,clear sky
664,Fukue,32.6881,128.8419,55.4,94,75,3.44,JP,2021-01-21 23:22:56,broken clouds
665,Kashi,39.4547,75.9797,21.2,73,20,6.71,CN,2021-01-21 23:22:56,few clouds
666,Tabora,-5.0167,32.8,65.32,93,100,3.0,TZ,2021-01-21 23:22:56,overcast clouds
667,Guerrero Negro,27.9769,-114.0611,66.83,52,18,9.55,MX,2021-01-21 23:22:56,few clouds
668,Kushima,31.4583,131.2333,53.6,94,40,2.3,JP,2021-01-21 23:22:56,scattered clouds
669,Padang,-0.9492,100.3543,76.62,71,100,4.07,ID,2021-01-21 23:22:56,overcast clouds
670,Batagay-Alyta,67.8006,130.4114,-25.74,84,100,1.68,RU,2021-01-21 23:22:56,overcast clouds
671,Karatau,43.1667,70.4667,25.93,97,100,18.86,KZ,2021-01-21 23:22:56,snow
672,Aguie,13.506,7.7786,63.16,27,0,12.26,NE,2021-01-21 23:22:09,clear sky
673,Valenca,-13.3703,-39.0731,73.02,88,95,3.33,BR,2021-01-21 23:22:57,overcast clouds
674,Petropavlovsk-Kamchatskiy,53.0452,158.6483,3.2,72,43,11.18,RU,2021-01-21 23:22:57,scattered clouds
675,Roswell,34.0232,-84.3616,48.99,93,90,6.91,US,2021-01-21 23:20:13,overcast clouds
676,Hami,42.8,93.45,19.96,80,35,3.71,CN,2021-01-21 23:22:57,scattered clouds
677,Abha,18.2164,42.5053,53.6,32,19,6.91,SA,2021-01-21 23:22:57,dust
678,Foumban,5.7291,10.9001,62.69,34,83,3.24,CM,2021-01-21 23:22:57,broken clouds
679,Alexandria,31.2156,29.9553,55.4,62,40,4.61,EG,2021-01-21 23:22:57,scattered clouds
680,Kamaishi,39.2667,141.8833,32.0,93,75,2.3,JP,2021-01-21 23:22:57,mist
681,Antalaha,-14.9003,50.2788,76.95,91,100,3.29,MG,2021-01-21 23:22:57,light rain
682,Ashqelon,31.6693,34.5715,46.99,76,0,6.91,IL,2021-01-21 23:22:57,clear sky
683,Prince Rupert,54.3161,-130.3201,35.6,86,1,2.3,CA,2021-01-21 23:20:08,clear sky
684,Evensk,61.95,159.2333,-3.68,80,99,1.14,RU,2021-01-21 23:22:58,overcast clouds
685,Eyl,7.9803,49.8164,75.04,78,46,17.45,SO,2021-01-21 23:22:58,scattered clouds
686,Lethem,3.3803,-59.7968,83.32,59,26,9.69,GY,2021-01-21 23:22:58,scattered clouds
687,Stornoway,58.2093,-6.3865,39.2,81,75,25.32,GB,2021-01-21 23:22:58,broken clouds
688,Dakar,14.6937,-17.4441,66.2,77,95,9.22,SN,2021-01-21 23:22:58,overcast clouds
689,Dargaville,-35.9333,173.8833,67.46,55,42,10.11,NZ,2021-01-21 23:22:58,scattered clouds
690,Chimbote,-9.0853,-78.5783,72.45,76,77,11.1,PE,2021-01-21 23:22:58,broken clouds
691,Akdepe,42.0551,59.3788,10.4,85,0,11.5,TM,2021-01-21 23:22:59,clear sky
692,Flin Flon,54.7682,-101.865,5.0,78,75,5.75,CA,2021-01-21 23:22:59,light snow
693,Ancud,-41.8697,-73.8203,73.0,68,0,6.91,CL,2021-01-21 23:22:59,clear sky
694,Arman,59.7,150.1667,-10.48,74,48,6.15,RU,2021-01-21 23:22:59,scattered clouds
695,Morondava,-20.2833,44.2833,83.41,70,100,11.43,MG,2021-01-21 23:22:59,overcast clouds
696,Whitehorse,60.7161,-135.0538,14.0,92,20,9.22,CA,2021-01-21 23:22:59,few clouds
697,Lalmohan,22.3384,90.7419,65.64,64,67,7.47,BD,2021-01-21 23:22:59,broken clouds
698,Smolenka,52.1352,113.4974,-11.2,77,98,2.13,RU,2021-01-21 23:22:59,overcast clouds
699,Yinchuan,38.4681,106.2731,24.35,71,19,2.06,CN,2021-01-21 23:23:00,few clouds
700,Ayios Nikolaos,38.4167,23.65,53.01,72,26,3.33,GR,2021-01-21 23:23:00,scattered clouds
701,Kenai,60.5544,-151.2583,33.8,86,90,8.05,US,2021-01-21 23:23:00,overcast clouds
702,Albenga,44.0529,8.216,50.0,95,100,0.85,IT,2021-01-21 23:23:01,moderate rain
703,Jieshi,22.8134,115.8257,64.99,80,92,2.93,CN,2021-01-21 23:23:01,overcast clouds
704,Aksha,50.2814,113.2867,0.48,87,95,1.61,RU,2021-01-21 23:23:01,overcast clouds
705,Camacha,33.0833,-16.3333,64.4,94,75,11.5,PT,2021-01-21 23:23:01,fog
706,Kindu,-2.95,25.95,68.56,91,100,3.02,CD,2021-01-21 23:23:01,light rain
707,Chenzhou,25.8,113.0333,51.39,87,97,4.16,CN,2021-01-21 23:23:02,overcast clouds
708,Kloulklubed,7.0419,134.2556,82.4,89,90,5.75,PW,2021-01-21 23:23:02,light rain
709,Tual,-5.6667,132.75,83.66,72,89,2.62,ID,2021-01-21 23:23:02,overcast clouds
710,Kitimat,54.0524,-128.6534,33.01,75,100,4.21,CA,2021-01-21 23:21:34,overcast clouds
711,Westport,41.1415,-73.3579,37.99,52,1,8.03,US,2021-01-21 23:23:02,clear sky
712,Bardiyah,31.7561,25.0865,53.1,60,1,4.79,LY,2021-01-21 23:23:02,clear sky
713,Taperoa,-7.2075,-36.8267,77.07,59,92,16.55,BR,2021-01-21 23:22:38,overcast clouds
714,Houston,29.7633,-95.3633,69.01,100,90,8.05,US,2021-01-21 23:21:57,light rain
715,Ayorou,14.7308,0.9174,68.83,20,0,10.58,NE,2021-01-21 23:23:02,clear sky
716,Boyuibe,-20.4167,-63.2833,80.6,47,10,4.61,BO,2021-01-21 23:23:02,clear sky
717,Sabha,27.0377,14.4283,49.44,45,0,9.19,LY,2021-01-21 23:23:03,clear sky
718,Prainha,-1.8,-53.48,76.73,80,77,2.48,BR,2021-01-21 23:23:03,light rain
719,Tupik,54.4253,119.9327,-29.22,82,11,0.72,RU,2021-01-21 23:23:03,few clouds
720,Ust-Ordynskiy,52.805,104.7508,5.0,85,0,8.95,RU,2021-01-21 23:23:03,clear sky
721,Iisalmi,63.5592,27.1907,12.2,85,90,16.11,FI,2021-01-21 23:23:03,snow
722,Puerto Escondido,15.85,-97.0667,84.2,70,20,5.75,MX,2021-01-21 23:23:03,few clouds
723,Bonthe,7.5264,-12.505,78.21,84,8,7.11,SL,2021-01-21 23:23:03,clear sky
724,Baculin,7.4525,126.5842,78.15,78,96,4.23,PH,2021-01-21 23:23:03,overcast clouds
725,Xinxiang,35.3089,113.8672,36.16,73,100,6.53,CN,2021-01-21 23:23:03,overcast clouds
726,Bilibino,68.0546,166.4372,-20.81,82,95,3.85,RU,2021-01-21 23:23:03,overcast clouds
727,Linhares,-19.3911,-40.0722,73.0,80,3,3.47,BR,2021-01-21 23:20:08,clear sky
728,Limbang,4.75,115.0,75.2,88,75,2.3,MY,2021-01-21 23:23:04,broken clouds
729,Gryazovets,58.88,40.2525,-2.07,93,100,4.43,RU,2021-01-21 23:23:04,light snow
730,Myitkyina,25.3833,97.4,51.49,93,14,3.24,MM,2021-01-21 23:18:10,few clouds
731,Kropotkin,45.4375,40.5756,27.14,96,78,8.14,RU,2021-01-21 23:23:04,light snow
732,Bilma,18.6853,12.9164,61.48,29,0,7.72,NE,2021-01-21 23:23:04,clear sky
733,Patti,31.2808,74.8572,44.6,81,40,3.44,IN,2021-01-21 23:23:04,mist
734,Mpika,-11.8343,31.4529,61.95,98,100,6.13,ZM,2021-01-21 23:23:04,light rain
735,Cerritos,33.8583,-118.0648,71.6,35,1,8.05,US,2021-01-21 23:18:13,clear sky
736,Felsopakony,47.3433,19.237,44.6,76,20,10.36,HU,2021-01-21 23:23:04,few clouds
737,Macusani,-14.0833,-70.4333,40.39,80,98,5.26,PE,2021-01-21 23:23:05,overcast clouds
738,Rawson,-43.3002,-65.1023,80.44,37,26,14.9,AR,2021-01-21 23:23:05,scattered clouds
739,Fort Nelson,58.8053,-122.7002,23.0,74,40,0.38,CA,2021-01-21 23:23:05,scattered clouds
740,Jiangyou,31.7667,104.7167,43.34,78,100,0.76,CN,2021-01-21 23:23:05,overcast clouds
741,Flinders,-34.5833,150.8552,77.0,71,2,8.01,AU,2021-01-21 23:23:05,clear sky
